Index,City,Latitude,Longitude
84,madison,34.73,-86.57
181,walvis bay,-22.96,14.51
74,carnarvon,-24.87,113.63
541,anadyr,64.75,177.48
421,high level,58.52,-117.14
306,newport,51.59,-3.0
379,swan river,52.11,-101.27
145,capelinha,-17.69,-42.52
85,nome,64.5,-165.41
416,boa vista,2.82,-60.67
196,saskylakh,71.92,114.08
364,itoman,26.12,127.67
408,bandarbeyla,9.49,50.81
256,lavrentiya,65.58,-171.0
447,londa,15.47,74.52
191,nicoya,10.15,-85.45
505,la pena,43.28,5.52
92,mamallapuram,12.63,80.17
95,lagoa,39.05,-27.98
124,sao joao da barra,-21.64,-41.05
144,takoradi,4.88,-1.76
197,balgazyn,51.0,95.2
162,henties bay,-22.12,14.28
544,indapur,18.3,73.25
537,novozavidovskiy,56.55,36.43
1,georgetown,5.41,100.34
157,mount isa,-20.73,139.5
89,mangai,-4.05,19.53
442,znamenskoye,57.13,73.83
247,liepaja,56.54,21.04
479,ortega,3.94,-75.22
473,olinda,-8.01,-34.86
129,fonte boa,-2.5,-66.27
217,vardo,70.37,31.11
11,rikitea,-23.12,-134.97
399,todos santos,23.45,-110.22
67,butaritari,3.07,172.79
107,neryungri,56.67,124.65
530,kieta,-6.22,155.63
73,mantua,45.17,10.78
566,chongwe,-15.33,28.68
501,sainte-thecle,46.82,-72.5
568,salalah,17.02,54.09
121,tual,-5.67,132.75
570,antofagasta,-23.65,-70.4
113,magalia,39.81,-121.58
535,gwadar,25.12,62.33
521,kiama,-34.68,150.87
135,teya,60.38,92.63
381,hlotse,-28.87,28.05
368,marawi,8.0,124.29
68,son la,21.32,103.9
173,nizwa,22.93,57.53
332,pafos,34.77,32.42
339,chilakalurupet,16.08,80.17
250,saint george,37.1,-113.58
500,san cristobal,7.77,-72.22
422,sibut,5.72,19.07
441,sao filipe,14.9,-24.5
480,birin,26.89,88.07
507,ontario,34.06,-117.65
415,waipawa,-41.41,175.52
317,jacareacanga,-6.22,-57.75
551,gamba,-2.65,10.0
190,birnin kebbi,12.45,4.2
543,grakhovo,56.05,51.97
37,ushuaia,-54.8,-68.3
131,changping,40.22,116.22
148,shache,38.42,77.24
331,mecca,21.43,39.83
235,mackay,-21.15,149.2
164,tura,25.52,90.22
29,cape town,-33.93,18.42
134,niimi,34.98,133.47
333,port lincoln,-34.73,135.87
580,yarmouth,41.71,-70.23
160,lunenburg,44.38,-64.32
34,port alfred,-33.59,26.89
417,opuwo,-18.06,13.84
297,benghazi,32.12,20.07
353,savannah bight,16.45,-85.85
425,maniitsoq,65.42,-52.9
585,benjamin aceval,-24.97,-57.57
420,saint anthony,45.02,-93.22
392,bekwai,6.45,-1.58
584,black forest,39.01,-104.7
38,tanout,14.97,8.89
61,dikson,73.51,80.55
578,hofn,64.25,-15.21
363,davila,18.47,120.58
390,gornopravdinsk,60.05,69.9
509,redding,40.59,-122.39
52,kholtoson,50.3,103.31
318,port hardy,50.7,-127.42
154,chokurdakh,70.63,147.92
291,kahului,20.89,-156.47
377,ashland,40.82,-82.27
231,meulaboh,4.14,96.13
404,villepinte,48.96,2.53
536,biak,-0.91,122.88
380,benemerito de las americas,16.52,-90.64
524,saint-leu,-21.15,55.28
547,viedma,-40.81,-63.0
321,kasrawad,22.13,75.6
76,sambava,-14.27,50.17
258,kyabe,9.45,18.94
327,svetlaya,46.54,138.33
350,kirovo-chepetsk,58.55,50.04
172,atasu,48.68,71.64
39,krasnoarmeysk,51.02,45.7
86,hobart,-42.88,147.33
203,whakatane,-37.96,176.99
465,kanniyakumari,8.08,77.57
328,caravelas,-17.71,-39.25
285,cayenne,4.93,-52.33
334,ahipara,-35.17,173.17
185,luderitz,-26.65,15.16
9,hilo,19.73,-155.09
471,bubaque,11.28,-15.83
554,eureka,40.8,-124.16
504,cadillac,44.25,-85.4
201,ciudad bolivar,8.12,-63.55
49,shubarshi,48.59,57.19
567,chernyshevsk,52.52,117.02
122,roald,62.58,6.13
19,warmbad,-28.45,18.73
540,najran,17.49,44.13
573,redmond,47.67,-122.12
407,wadi musa,30.32,35.48
24,abong mbang,3.98,13.18
4,dingle,11.0,122.67
309,kenai,60.55,-151.26
56,carlyle,38.61,-89.37
299,luwuk,-0.95,122.79
545,flinders,-34.58,150.86
222,dehloran,32.69,47.27
305,paamiut,61.99,-49.67
579,luanda,-8.84,13.23
533,flin flon,54.77,-101.86
179,uyuni,-20.46,-66.83
232,piacabucu,-10.41,-36.43
467,mirabad,30.44,61.84
16,muroto,33.28,134.15
257,chuy,-33.7,-53.46
31,itapirapua,-15.82,-50.61
82,longyearbyen,78.22,15.64
271,mehamn,71.04,27.85
30,araouane,18.9,-3.53
337,ouadda,8.08,22.4
153,ponta do sol,32.67,-17.1
110,qaanaaq,77.48,-69.36
319,kavaratti,10.57,72.64
395,ushtobe,45.25,77.98
559,tazovskiy,67.47,78.7
302,vikulovo,56.82,70.61
366,mananjary,-21.22,48.33
100,burnie,-41.07,145.92
466,lorca,37.67,-1.7
495,matera,40.5,16.42
289,aksu,41.12,80.26
20,lebu,-37.62,-73.65
109,victoria,22.29,114.16
367,kamuli,0.95,33.12
550,haines junction,60.75,-137.51
252,waingapu,-9.66,120.26
564,khandbari,27.37,87.2
517,neuquen,-38.95,-68.06
219,cap malheureux,-19.98,57.61
528,coquimbo,-29.95,-71.34
451,wagar,16.15,36.2
71,bluff,-46.6,168.33
508,avera,33.19,-82.53
254,dossor,47.53,52.98
7,albany,42.6,-73.97
469,yeppoon,-23.13,150.73
253,esna,25.29,32.55
170,dunedin,-45.87,170.5
329,soeng sang,14.43,102.46
488,divnomorskoye,44.5,38.14
458,kulhudhuffushi,6.62,73.07
313,marystown,47.17,-55.15
454,beloha,-25.17,45.05
8,puerto ayora,-0.74,-90.35
174,kommunisticheskiy,61.68,64.48
560,jiwani,25.05,61.74
5,yicheng,31.37,119.87
244,cabinda,-5.55,12.2
25,reforma,18.1,-91.02
189,pisco,-13.7,-76.22
132,galiakot,23.52,74.0
514,turukhansk,65.82,87.98
55,new norfolk,-42.78,147.06
398,brazzaville,-4.27,15.28
98,gat,31.61,34.76
450,pak thong chai,14.72,102.03
438,chapais,49.78,-74.85
161,taltal,-25.4,-70.48
320,guerrero negro,27.98,-114.06
529,noumea,-22.28,166.46
308,margate,51.38,1.39
78,shieli,44.17,66.75
357,zhanakorgan,43.91,67.25
492,obodivka,48.41,29.25
449,tucuman,-26.82,-65.22
259,bambanglipuro,-7.95,110.28
534,rawson,-43.3,-65.1
475,bowen,-20.02,148.23
192,severo-kurilsk,50.68,156.12
48,juneau,58.3,-134.42
149,sinnamary,5.38,-52.95
177,vanderhoof,54.02,-124.02
446,jalingo,8.88,11.37
506,galveston,29.37,-94.97
515,summerville,33.02,-80.18
295,yei,4.09,30.68
347,ponta delgada,37.73,-25.67
178,apac,1.98,32.54
432,pontianak,-0.03,109.33
229,yar-sale,66.83,70.83
114,inirida,3.87,-67.92
546,imeni vorovskogo,55.72,38.34
215,villa bruzual,9.33,-69.12
375,elizabeth city,36.29,-76.25
50,jamestown,42.1,-79.24
582,skelleftea,64.75,20.95
246,moose factory,51.26,-80.61
62,baculin,7.45,126.58
130,cortez,37.35,-108.59
284,duzce,40.84,31.16
233,divnogorsk,55.96,92.36
435,santa clara,22.4,-79.97
213,labuhan,-6.88,112.21
70,atuona,-9.8,-139.03
335,okato,-39.2,173.88
77,contamana,-7.33,-75.02
210,domna,51.9,113.16
358,kutum,14.2,24.67
563,yarim,14.3,44.38
423,itaperuna,-21.2,-41.89
212,leningradskiy,69.38,178.42
150,clyde river,70.47,-68.59
103,ushumun,52.78,126.53
270,khor,47.89,134.95
163,leshukonskoye,64.9,45.76
141,mahebourg,-20.41,57.7
538,nokaneng,-19.67,22.27
293,sao gabriel da cachoeira,-0.13,-67.09
478,mocuba,-16.84,36.99
133,castro,-24.79,-50.01
183,kurkino,53.43,38.66
266,soure,-0.72,-48.52
569,terrak,65.09,12.37
409,almeirim,-1.52,-52.58
453,cunha,-23.07,-44.96
322,tagusao,9.19,117.81
552,koregaon,18.65,74.08
221,falmouth,50.15,-5.07
314,touros,-5.2,-35.46
565,alta floresta,-9.88,-56.09
468,kirakira,-10.45,161.92
146,lakkion,37.13,26.85
562,chabahar,25.29,60.64
116,pangkalanbuun,-2.68,111.62
361,chokwe,-24.53,32.98
156,okhotsk,59.38,143.3
214,baherden,38.44,57.43
206,naze,28.37,129.48
577,charters towers,-20.1,146.27
527,jalu,29.03,21.55
193,kaitangata,-46.28,169.85
486,ulaangom,49.98,92.07
511,uyemskiy,64.47,40.85
75,lamar,33.67,-95.58
186,hami,42.8,93.45
14,yellowknife,62.46,-114.35
298,ishinomaki,38.42,141.3
303,sibolga,1.74,98.78
225,buston,40.52,69.33
202,oliveira,-20.7,-44.83
549,zapolyarnyy,69.42,30.81
472,te anau,-45.42,167.72
558,nouakchott,18.09,-15.98
188,tiksi,71.69,128.87
125,zhoucheng,35.91,116.31
374,panguna,-6.32,155.48
288,amahai,-3.33,128.92
88,san patricio,19.22,-104.7
36,busselton,-33.65,115.33
419,durango,24.83,-104.83
151,macklin,52.33,-109.93
571,lasa,46.62,10.7
236,maceio,-9.67,-35.74
397,sawakin,19.11,37.33
455,lermontovka,47.15,134.34
102,havoysund,71.0,24.66
101,whitehorse,60.72,-135.05
169,bengkulu,-3.8,102.27
227,lompoc,34.64,-120.46
45,vaini,-21.2,-175.2
312,atyrau,47.12,51.88
33,conceicao do araguaia,-8.26,-49.26
22,beian,63.66,9.57
385,abilene,32.45,-99.73
143,kavieng,-2.57,150.8
290,toktogul,41.87,72.94
484,deputatskiy,69.3,139.9
147,letpadan,17.78,95.75
60,mar del plata,-38.0,-57.56
516,horta,38.53,-28.63
224,kropotkin,45.44,40.58
382,puerto baquerizo moreno,-0.9,-89.6
112,klaksvik,62.23,-6.59
255,qasigiannguit,68.82,-51.19
456,woodward,36.43,-99.39
269,el sauzal,31.9,-116.68
572,palana,59.12,159.97
17,mangochi,-14.48,35.26
346,ajaccio,42.0,8.92
128,kapan,39.21,46.41
539,vestmannaeyjar,63.44,-20.27
448,poum,-20.23,164.02
142,bumba,2.18,22.47
272,rio grande,-32.03,-52.1
93,huilong,31.81,121.66
576,sabang,5.89,95.32
209,fairbanks,64.84,-147.72
452,padang,-0.95,100.35
263,yaan,7.38,8.57
378,petatlan,17.52,-101.27
59,bredasdorp,-34.53,20.04
402,ormond beach,29.29,-81.06
43,tiznit,29.58,-9.5
